Save Bit,FC State,Time,Pre-converted Accel X,Pre-converted Accel Y,Pre-converted Accel Z,Pre-converted Gyro X,Pre-converted Gyro Y,Pre-converted Gyro Z,Pre-converted Magnetometer X,Pre-converted Magnetometer Y,Pre-converted Magnetometer Z,Barometric Pressure,Barometric Temperature,Roll Body Angle,Pitch Body Angle,Yaw Body Angle,Roll Body Rate,Pitch Body Rate,Yaw Body Rate,Velocity,Velo X,Velo Y,Velo Z,Position,Barometric Altitude,Barometric Velocity,GPS Altitude (ft),GPS Speed (KmH),GPS UTC Time,GPS Longitude (deg),GPS Latitude (deg),GPS North/South,GPS East/West,GPS GLL Status,GPS RMC Status,Canard Feedback
1,3,0.0000,9.6183,-0.0431,-0.1771,3.8483,21.9699,18.5000,,,0.0000,0.0000,0.0000,13.7670,-0.2165,1.4270,3.7607,16.9362,23.1970,4.8948,4.8939,-0.0219,-0.0901,0.0000,inf,,0.0000,2.6000,134732.0000,12.5216,55.6721,b'N',b'E',b'\x00',b'A',0.0000
1,3,0.0000,9.6040,-0.1436,-0.1244,-3.3539,14.2184,-14.9477,,,0.0000,0.0000,0.0000,13.3970,0.2765,0.9188,-3.4082,17.2948,-11.2468,5.2214,5.2205,-0.0268,-0.0943,0.0000,inf,,0.0000,2.6000,134732.0000,12.5216,55.6721,b'N',b'E',b'\x00',b'A',0.0000
1,3,0.0340,9.8863,0.1292,-0.0622,12.8817,21.1154,-14.2153,,,0.0000,0.0000,0.0000,13.6696,1.1886,0.2933,12.6986,23.8767,-8.8245,5.6599,5.6590,-0.0211,-0.0971,0.0000,inf,,0.0000,2.6000,134732.0000,12.5216,55.6721,b'N',b'E',b'\x00',b'A',0.0000
1,3,0.0780,9.9341,-0.0813,-0.0431,16.1166,13.1807,-6.7689,,,0.0000,0.0000,0.0000,13.8794,1.5573,0.0903,16.0239,14.4196,-3.4107,5.9592,5.9583,-0.0235,-0.0984,0.0000,inf,,0.0000,2.6000,134732.0000,12.5216,55.6721,b'N',b'E',b'\x00',b'A',0.0000
1,3,0.1080,9.6805,-0.0670,-0.1962,-11.5328,6.8330,-11.7739,,,0.0000,0.0000,0.0000,13.1576,1.8173,-0.3807,-11.8472,9.3337,-9.9144,6.3430,6.3421,-0.0262,-0.1062,0.0000,inf,,0.0000,2.6000,134732.0000,12.5216,55.6721,b'N',b'E',b'\x00',b'A',0.0000
1,3,0.1480,9.7379,0.1436,0.0670,0.9796,18.3078,-9.0883,,,0.0000,0.0000,0.0000,12.8968,2.1319,-0.5625,0.8020,19.8744,-4.7761,6.5396,6.5387,-0.0233,-0.1048,0.0000,inf,,0.0000,2.6000,134732.0000,12.5216,55.6721,b'N',b'E',b'\x00',b'A',0.0000
1,3,0.1680,9.9198,-0.0431,-0.0048,6.2898,12.1431,20.3311,,,0.0000,0.0000,0.0000,12.8904,2.5658,0.2508,7.2993,7.3015,22.5503,6.9388,6.9380,-0.0250,-0.1050,0.0000,inf,,0.0000,3.2000,134732.0000,12.5216,55.6721,b'N',b'E',b'\x00',b'A',0.0000
1,3,0.2080,9.8001,-0.1866,-0.1196,14.7127,6.3447,7.0863,,,0.0000,0.0000,0.0000,13.2312,2.7772,0.5342,15.1178,4.5544,8.3602,7.3281,7.3272,-0.0324,-0.1097,0.0000,inf,,0.0000,3.2000,134732.0000,12.5216,55.6721,b'N',b'E',b'\x00',b'A',0.0000
1,3,0.2480,9.7667,-0.1053,-0.1340,19.1684,-11.4778,-4.8157,,,0.0000,0.0000,0.0000,13.5424,2.3999,0.3898,18.8595,-10.0310,-7.3760,7.6195,7.6186,-0.0356,-0.1137,0.0000,inf,,0.0000,3.2000,134732.0000,12.5216,55.6721,b'N',b'E',b'\x00',b'A',0.0000
1,3,0.2780,9.6040,-0.0670,-0.0909,-18.9792,13.1807,17.9507,,,0.0000,0.0000,0.0000,12.7216,2.7503,0.9283,-17.9986,8.9042,20.4362,7.9102,7.9092,-0.0376,-0.1165,0.0000,inf,,0.0000,3.2000,134732.0000,12.5216,55.6721,b'N',b'E',b'\x00',b'A',0.0000
1,3,0.3080,9.9198,-0.0096,-0.1818,-6.9551,10.6783,3.7903,,,0.0000,0.0000,0.0000,12.1956,3.1349,1.0799,-6.6286,9.6366,5.9695,8.3048,8.3038,-0.0380,-0.1237,0.0000,inf,,0.0000,3.2000,134732.0000,12.5216,55.6721,b'N',b'E',b'\x00',b'A',0.0000
1,3,0.3480,9.8193,0.0766,0.0383,10.3792,15.1949,-8.1727,,,0.0000,0.0000,0.0000,12.2479,3.5144,0.8347,10.0867,16.5829,-4.7722,8.5988,8.5978,-0.0357,-0.1226,0.0000,inf,,0.0000,3.2000,134732.0000,12.5216,55.6721,b'N',b'E',b'\x00',b'A',0.0000
1,3,0.3780,9.8097,-0.1101,0.0861,14.2855,-11.2947,-12.7504,,,0.0000,0.0000,0.0000,12.4498,3.0909,0.4394,13.4817,-8.2803,-14.9073,8.9010,8.9001,-0.0391,-0.1199,0.0000,inf,,0.0000,3.2000,134732.0000,12.5216,55.6721,b'N',b'E',b'\x00',b'A',0.0000
1,3,0.4090,9.5992,-0.1388,0.0144,-10.1289,16.9039,-15.3140,,,0.0000,0.0000,0.0000,11.9295,3.5078,-0.0047,-10.8332,19.7044,-11.5106,9.1812,9.1803,-0.0431,-0.1195,0.0000,inf,,0.0000,3.2000,134733.0000,12.5216,55.6721,b'N',b'E',b'\x00',b'A',0.0000
1,3,0.4380,9.6470,0.0144,0.0766,-10.0679,-2.6276,3.5462,,,0.0000,0.0000,0.0000,11.3834,3.3487,0.1053,-9.8948,-3.2758,2.9629,9.4824,9.4816,-0.0427,-0.1171,0.0000,inf,,0.0000,3.2000,134733.0000,12.5216,55.6721,b'N',b'E',b'\x00',b'A',0.0000
1,3,0.4690,9.7332,0.1436,-0.1053,-12.8145,-12.9427,-14.3374,,,0.0000,0.0000,0.0000,10.7118,2.8629,-0.3822,-13.6393,-10.0523,-16.5138,9.8158,9.8150,-0.0377,-0.1207,0.0000,inf,,0.0000,3.2000,134733.0000,12.5216,55.6721,b'N',b'E',b'\x00',b'A',0.0000
1,3,0.5030,9.8097,0.0000,0.0622,-13.9742,12.6314,-5.2430,,,0.0000,0.0000,0.0000,10.0593,3.1945,-0.5500,-14.1392,13.3530,-2.9607,10.1265,10.1257,-0.0377,-0.1188,0.0000,inf,,0.0000,3.2000,134733.0000,12.5216,55.6721,b'N',b'E',b'\x00',b'A',0.0000
1,3,0.5350,9.7044,-0.0670,0.0048,8.0598,-0.4913,-2.9236,,,0.0000,0.0000,0.0000,10.1109,3.1151,-0.6406,7.8985,0.0295,-2.9689,10.4322,10.4314,-0.0399,-0.1186,0.0000,inf,,0.0000,3.2000,134733.0000,12.5216,55.6721,b'N',b'E',b'\x00',b'A',0.0000
1,3,0.5660,9.6470,0.0431,0.0622,-7.4434,14.0963,7.0863,,,0.0000,0.0000,0.0000,9.6702,3.4875,-0.4138,-6.8733,12.7057,9.3708,10.7366,10.7359,-0.0385,-0.1166,0.0000,inf,,0.0000,3.2000,134733.0000,12.5216,55.6721,b'N',b'E',b'\x00',b'A',0.0000
1,3,0.5980,9.7188,0.1962,0.1148,-16.1715,-6.1677,19.9039,,,0.0000,0.0000,0.0000,8.9782,3.2229,0.1833,-15.1187,-9.1983,18.7271,11.0319,11.0313,-0.0325,-0.1131,0.0000,inf,,0.0000,3.2000,134733.0000,12.5216,55.6721,b'N',b'E',b'\x00',b'A',0.0000
1,3,0.6280,9.9054,0.1579,-0.0670,7.4495,5.6733,-7.9896,,,0.0000,0.0000,0.0000,8.9994,3.3330,-0.0564,7.0416,6.8532,-7.0157,11.3298,11.3292,-0.0278,-0.1152,0.0000,inf,,0.0000,3.2000,134733.0000,12.5216,55.6721,b'N',b'E',b'\x00',b'A',0.0000
1,3,0.6590,9.6422,0.1675,-0.0718,5.0080,-13.9803,-8.4779,,,0.0000,0.0000,0.0000,8.9467,2.8638,-0.3108,4.4803,-12.4918,-10.5621,11.6180,11.6174,-0.0228,-0.1173,0.0000,inf,,0.0000,3.2000,134733.0000,12.5216,55.6721,b'N',b'E',b'\x00',b'A',0.0000
1,3,0.6880,9.6518,0.0957,-0.1148,-12.6314,11.9600,20.3922,,,0.0000,0.0000,0.0000,8.3851,3.1718,0.3010,-11.4168,8.8585,21.9519,11.9053,11.9046,-0.0199,-0.1207,0.0000,inf,,0.0000,3.2000,134733.0000,12.5216,55.6721,b'N',b'E',b'\x00',b'A',0.0000
1,3,0.7180,9.9198,0.1818,-0.1579,-5.1240,-7.8157,23.0167,,,0.0000,0.0000,0.0000,8.0959,2.9734,0.7613,-3.9975,-10.9792,21.7159,12.1069,12.1062,-0.0162,-0.1239,0.0000,inf,,0.0000,3.2000,134733.0000,12.5216,55.6721,b'N',b'E',b'\x00',b'A',0.0000
1,3,0.7380,9.7810,-0.1244,0.0909,-6.9551,-11.2947,-2.5574,,,0.0000,0.0000,0.0000,7.7441,2.5712,0.6846,-7.1372,-10.8471,-4.0601,12.3956,12.3950,-0.0199,-0.1212,0.0000,inf,,0.0000,3.2000,134733.0000,12.5216,55.6721,b'N',b'E',b'\x00',b'A',0.0000
1,3,0.7680,9.8193,-0.0766,-0.0766,7.7546,-5.4353,19.5377,,,0.0000,0.0000,0.0000,7.8261,2.3689,1.2708,8.5247,-8.0450,18.6315,12.6913,12.6907,-0.0222,-0.1236,0.0000,inf,,0.0000,3.2000,134733.0000,12.5216,55.6721,b'N',b'E',b'\x00',b'A',0.0000
1,3,0.7980,9.9724,-0.1579,0.0191,5.1301,-16.2386,2.0813,,,0.0000,0.0000,0.0000,7.8386,1.8419,1.3332,5.1252,-16.3708,-0.1529,12.9877,12.9871,-0.0269,-0.1230,0.0000,inf,,0.0000,3.2000,134733.0000,12.5216,55.6721,b'N',b'E',b'\x00',b'A',0.0000
1,3,0.8280,9.7667,0.1148,-0.0526,2.0783,-15.1400,22.9557,,,0.0000,0.0000,0.0000,7.7091,1.5145,1.7923,2.6260,-18.0825,20.7245,13.1838,13.1832,-0.0246,-0.1240,0.0000,inf,,0.0000,3.2000,134734.0000,12.5216,55.6721,b'N',b'E',b'\x00',b'A',0.0000
1,3,0.8480,9.9389,0.0526,-0.1340,6.1067,3.7201,-14.4594,,,0.0000,0.0000,0.0000,7.7284,1.6091,1.3585,5.7182,5.6308,-13.8333,13.4815,13.4809,-0.0230,-0.1281,0.0000,inf,,0.0000,3.2000,134734.0000,12.5216,55.6721,b'N',b'E',b'\x00',b'A',0.0000
1,3,0.8780,9.6279,-0.0718,0.0191,3.4211,20.8713,6.0487,,,0.0000,0.0000,0.0000,7.6829,2.1882,1.5400,3.7567,19.8753,8.7911,13.7703,13.7697,-0.0252,-0.1275,0.0000,inf,,0.0000,3.2000,134734.0000,12.5216,55.6721,b'N',b'E',b'\x00',b'A',0.0000
1,3,0.9080,9.9341,0.1101,-0.1436,16.8490,-14.2855,-6.5858,,,0.0000,0.0000,0.0000,8.0119,1.7410,1.3424,16.5903,-13.2281,-8.5165,14.0716,14.0710,-0.0218,-0.1318,0.0000,inf,,0.0000,3.2000,134734.0000,12.5216,55.6721,b'N',b'E',b'\x00',b'A',0.0000
1,3,0.9380,9.7619,-0.0096,-0.1914,8.1209,-1.5290,16.2417,,,0.0000,0.0000,0.0000,8.1712,1.6687,1.9921,8.5829,-3.8219,15.8662,14.4614,14.4607,-0.0222,-0.1395,0.0000,inf,,0.0000,3.2000,134734.0000,12.5216,55.6721,b'N',b'E',b'\x00',b'A',0.0000
1,3,0.9780,9.8480,-0.1101,-0.1101,7.0222,19.5895,20.6973,,,0.0000,0.0000,0.0000,8.2339,2.2433,2.6337,7.9345,16.4234,23.3073,14.7611,14.7604,-0.0256,-0.1428,0.0000,inf,,0.0000,3.2000,134734.0000,12.5216,55.6721,b'N',b'E',b'\x00',b'A',0.0000
1,3,1.0090,9.7140,0.0000,-0.1627,15.2010,-5.6794,-0.9705,,,0.0000,0.0000,0.0000,8.6502,2.0005,2.5958,15.1377,-5.4688,-1.8147,15.1457,15.1449,-0.0256,-0.1493,0.0000,inf,,0.0000,3.2000,134734.0000,12.5216,55.6721,b'N',b'E',b'\x00',b'A',0.0000
1,3,1.0480,9.9628,0.0383,-0.0909,-6.8330,14.4015,-13.5439,,,0.0000,0.0000,0.0000,8.3321,2.2674,2.3114,-7.2810,16.2121,-11.3229,15.3490,15.3482,-0.0248,-0.1511,0.0000,inf,,0.0000,3.2000,134734.0000,12.5216,55.6721,b'N',b'E',b'\x00',b'A',0.0000
1,3,1.0690,9.6901,0.0766,0.0335,-19.4064,20.7492,-12.9335,,,0.0000,0.0000,0.0000,7.4147,3.0111,1.8070,-19.9402,22.2448,-10.1617,15.7312,15.7305,-0.0218,-0.1498,0.0000,inf,,0.0000,3.2000,134734.0000,12.5216,55.6721,b'N',b'E',b'\x00',b'A',0.0000
1,3,1.1080,9.9006,-0.1483,-0.0909,5.9846,16.1105,10.6874,,,0.0000,0.0000,0.0000,7.4596,3.4350,2.1276,6.7462,14.5866,12.7114,16.0286,16.0279,-0.0262,-0.1525,0.0000,inf,,0.0000,3.2000,134734.0000,12.5216,55.6721,b'N',b'E',b'\x00',b'A',0.0000
1,3,1.1380,9.8624,0.1675,-0.1053,-1.7060,2.4994,13.1899,,,0.0000,0.0000,0.0000,7.2575,3.4276,2.3914,-0.9034,0.8131,13.4240,16.2254,16.2247,-0.0229,-0.1546,0.0000,inf,,0.0000,3.2000,134734.0000,12.5216,55.6721,b'N',b'E',b'\x00',b'A',0.0000
1,3,1.1580,9.6566,0.1531,-0.0718,-7.3823,-2.8107,-12.1401,,,0.0000,0.0000,0.0000,6.8048,3.2573,1.9058,-8.0873,-1.3525,-12.4076,16.6124,16.6117,-0.0167,-0.1575,0.0000,inf,,0.0000,3.2000,134734.0000,12.5216,55.6721,b'N',b'E',b'\x00',b'A',0.0000
1,3,1.1980,9.7762,-0.0048,0.1292,-18.8571,2.3774,-13.6660,,,0.0000,0.0000,0.0000,5.9300,3.2703,1.3592,-19.6197,3.7765,-13.3690,17.0028,17.0021,-0.0169,-0.1524,0.0000,inf,,0.0000,3.2000,134734.0000,12.5216,55.6721,b'N',b'E',b'\x00',b'A',0.0000
1,3,1.2380,9.9054,-0.1196,-0.0861,14.1024,-6.9001,19.9039,,,0.0000,0.0000,0.0000,6.2399,3.0119,1.9563,15.1040,-9.0226,19.0623,17.3007,17.3000,-0.0205,-0.1549,0.0000,inf,,0.0000,3.2000,34138.0000,-105.1125,39.8980,b'N',b'W',b'A',b'A',0.0000
1,3,1.2680,9.8241,0.1436,-0.0479,-2.7436,-11.2337,1.4710,,,0.0000,0.0000,0.0000,6.0177,2.6270,2.0004,-2.7305,-11.3260,0.2855,17.5931,17.5924,-0.0163,-0.1564,0.0000,inf,,0.0000,3.2000,34138.0000,-105.1125,39.8980,b'N',b'W',b'A',b'A',0.0000
1,3,1.2980,9.6949,-0.0622,0.1723,-1.5229,-1.1017,23.1998,,,0.0000,0.0000,0.0000,5.8599,2.5217,2.6964,-0.5114,-3.4646,22.9884,17.8860,17.8854,-0.0181,-0.1512,0.0000,inf,,0.0000,3.2000,34138.0000,-105.1125,39.8980,b'N',b'W',b'A',b'A',0.0000
1,3,1.3280,9.9437,-0.1579,-0.0287,-1.4008,16.9039,17.7066,,,0.0000,0.0000,0.0000,5.7060,3.1372,3.4047,-0.3430,15.0597,19.3285,18.2817,18.2811,-0.0244,-0.1523,0.0000,inf,,0.0000,3.2000,34138.0000,-105.1125,39.8980,b'N',b'W',b'A',b'A',0.0000
1,3,1.3680,9.7284,-0.0622,-0.1914,-7.8706,13.0587,-15.5581,,,0.0000,0.0000,0.0000,5.2830,3.6217,2.7668,-8.7751,14.4357,-14.3182,18.6825,18.6818,-0.0270,-0.1602,0.0000,inf,,0.0000,3.2000,34138.0000,-105.1125,39.8980,b'N',b'W',b'A',b'A',0.0000
1,3,1.4090,9.6183,-0.1579,-0.1436,14.1634,-5.9236,-9.5155,,,0.0000,0.0000,0.0000,5.5986,3.3980,2.4909,13.5668,-4.9670,-10.0657,18.9592,18.9585,-0.0315,-0.1643,0.0000,inf,,0.0000,3.2000,34138.0000,-105.1125,39.8980,b'N',b'W',b'A',b'A',0.0000
1,3,1.4380,9.7762,0.1723,0.1053,-15.9274,9.3965,-14.5815,,,0.0000,0.0000,0.0000,4.8421,3.6861,1.9076,-16.8123,10.5938,-13.7648,19.3560,19.3553,-0.0245,-0.1600,0.0000,inf,,0.0000,3.2000,202725.0000,-114.0307,51.1504,b'N',b'W',b'A',b'A',0.0000
1,3,1.4780,9.9102,0.1531,0.0000,9.4026,18.9181,3.9734,,,0.0000,0.0000,0.0000,5.0224,4.2056,2.0348,9.8155,18.4976,5.6296,19.6686,19.6679,-0.0197,-0.1600,0.0000,inf,,0.0000,3.2000,202725.0000,-114.0307,51.1504,b'N',b'W',b'A',b'A',0.0000
1,3,1.5100,9.7906,-0.0048,0.0479,-1.1566,-6.8391,0.9216,,,0.0000,0.0000,0.0000,4.8908,3.9283,2.0606,-1.1336,-6.8928,0.3360,19.9421,19.9415,-0.0198,-0.1587,0.0000,inf,,0.0000,3.2000,202725.0000,-114.0307,51.1504,b'N',b'W',b'A',b'A',0.0000
1,3,1.5380,9.7044,0.1818,-0.0096,-2.4994,-1.1017,18.2559,,,0.0000,0.0000,0.0000,4.6956,3.8174,2.6265,-1.2914,-2.5925,18.1447,20.2440,20.2434,-0.0142,-0.1590,0.0000,inf,,0.0000,3.2000,202725.0000,-114.0307,51.1504,b'N',b'W',b'A',b'A',0.0000
1,3,1.5690,9.6662,-0.0239,0.0909,-0.9125,-15.0790,23.8102,,,0.0000,0.0000,0.0000,4.5786,3.3017,3.3170,0.3873,-16.9315,22.5680,20.5238,20.5232,-0.0149,-0.1564,0.0000,inf,,0.0000,3.2000,202725.0000,-114.0307,51.1504,b'N',b'W',b'A',b'A',0.0000
1,3,1.5980,9.6375,-0.0957,0.1866,-5.6123,-9.4636,-0.0549,,,0.0000,0.0000,0.0000,4.3334,2.9352,3.3153,-5.6517,-9.4324,-0.7709,20.8136,20.8131,-0.0178,-0.1508,0.0000,inf,,0.0000,3.2000,202725.0000,-114.0307,51.1504,b'N',b'W',b'A',b'A',0.0000
1,3,1.6280,9.8049,-0.0526,-0.0431,8.1209,5.6123,-2.8016,,,0.0000,0.0000,0.0000,4.4120,2.9916,3.2593,7.9974,5.8112,-2.3647,21.0100,21.0094,-0.0188,-0.1516,0.0000,inf,,0.0000,3.2000,202725.0000,-114.0307,51.1504,b'N',b'W',b'A',b'A',0.0000
1,3,1.6480,9.9389,0.0287,-0.0909,13.8582,-0.6744,14.2885,,,0.0000,0.0000,0.0000,4.7279,2.9224,3.6880,14.5823,-1.8499,14.2028,21.3086,21.3080,-0.0180,-0.1544,0.0000,inf,,0.0000,3.2000,134730.3594,12.5214,55.6720,b'N',b'E',b'A',b'A',0.0000
1,3,1.6780,9.9628,0.1005,0.1914,-1.9501,1.3397,-0.0549,,,0.0000,0.0000,0.0000,4.5817,2.8695,3.6868,-1.9475,1.3398,0.0523,21.5141,21.5136,-0.0159,-0.1504,0.0000,inf,,0.0000,3.2000,134730.3594,12.5214,55.6720,b'N',b'E',b'A',b'A',0.0000
1,3,1.6990,9.8624,0.0287,-0.0335,-2.5605,-15.3841,13.3730,,,0.0000,0.0000,0.0000,4.4114,2.3637,4.0880,-2.0589,-16.3672,12.1604,21.8094,21.8089,-0.0150,-0.1514,0.0000,inf,,0.0000,3.2000,134730.3594,12.5214,55.6720,b'N',b'E',b'A',b'A',0.0000
1,3,1.7290,9.7188,0.1148,-0.0670,-13.4249,-14.9569,16.6079,,,0.0000,0.0000,0.0000,3.9281,1.8993,4.5696,-12.9094,-16.0595,15.5528,22.0932,22.0927,-0.0117,-0.1534,0.0000,inf,,0.0000,3.2000,134730.3594,12.5214,55.6720,b'N',b'E',b'A',b'A',0.0000
1,3,1.7580,9.6183,-0.1627,0.0096,4.6418,16.1715,-13.2998,,,0.0000,0.0000,0.0000,4.0054,2.3356,4.1706,4.1467,17.0610,-12.1478,22.3815,22.3810,-0.0165,-0.1531,0.0000,inf,,0.0000,3.2000,134730.3594,12.5214,55.6720,b'N',b'E',b'A',b'A',0.0000
1,3,1.7880,9.6135,-0.1483,0.0479,-3.3539,-5.0690,8.4291,,,0.0000,0.0000,0.0000,3.8444,2.1341,4.4235,-3.0532,-5.6228,8.0759,22.6702,22.6697,-0.0210,-0.1516,0.0000,inf,,0.0000,3.2000,134730.3594,12.5214,55.6720,b'N',b'E',b'A',b'A',0.0000
1,3,1.8180,9.9676,0.1818,0.0096,-11.5328,7.5044,22.5895,,,0.0000,0.0000,0.0000,3.2945,2.3845,5.3271,-10.5757,6.1938,23.0033,23.0682,23.0677,-0.0137,-0.1513,0.0000,inf,,0.0000,3.2000,134731.3594,12.5216,55.6721,b'N',b'E',b'A',b'A',0.0000
1,3,1.8580,9.7092,-0.1388,0.1101,19.7177,-9.1585,9.8939,,,0.0000,0.0000,0.0000,3.8247,2.0546,5.6239,20.0499,-9.7980,9.2670,23.3609,23.3604,-0.0179,-0.1479,0.0000,inf,,0.0000,3.2000,134731.3594,12.5216,55.6721,b'N',b'E',b'A',b'A',0.0000
1,3,1.8880,9.6040,0.1005,0.0383,1.2238,14.2184,19.8428,,,0.0000,0.0000,0.0000,3.7722,2.4269,6.2192,2.1026,12.8821,20.7539,23.6497,23.6492,-0.0149,-0.1468,0.0000,inf,,0.0000,3.2000,134731.3594,12.5216,55.6721,b'N',b'E',b'A',b'A',0.0000
1,3,1.9180,9.6901,0.1148,-0.1483,1.8952,-11.0506,-2.0691,,,0.0000,0.0000,0.0000,3.7389,2.0711,6.1571,1.7944,-10.8921,-2.7871,23.9410,23.9405,-0.0114,-0.1512,0.0000,inf,,0.0000,3.2000,134731.3594,12.5216,55.6721,b'N',b'E',b'A',b'A',0.0000
1,3,1.9480,9.8767,-0.1436,0.0096,-16.9650,11.5328,11.6640,,,0.0000,0.0000,0.0000,3.1820,2.3676,6.5070,-16.4570,10.8675,12.2967,24.2414,24.2409,-0.0158,-0.1510,0.0000,inf,,0.0000,3.2000,134731.3594,12.5216,55.6721,b'N',b'E',b'A',b'A',0.0000
1,3,1.9790,9.8097,-0.1388,-0.0861,-5.9174,19.1012,19.6597,,,0.0000,0.0000,0.0000,2.8968,3.0978,7.3131,-4.8026,18.0833,20.6301,24.6353,24.6348,-0.0214,-0.1544,0.0000,inf,,0.0000,3.2000,134731.3594,12.5216,55.6721,b'N',b'E',b'A',b'A',0.0000
1,3,2.0190,9.7188,0.1483,0.1388,6.0456,-5.3132,6.1097,,,0.0000,0.0000,0.0000,2.9932,2.8685,7.4903,6.3374,-5.6250,5.8312,24.9199,24.9195,-0.0170,-0.1503,0.0000,inf,,0.0000,3.2000,134731.3594,12.5216,55.6721,b'N',b'E',b'A',b'A',0.0000
1,3,2.0480,9.8097,-0.0957,-0.0526,2.9328,8.7251,-15.4360,,,0.0000,0.0000,0.0000,3.0192,3.0396,7.0889,2.1387,9.5260,-14.9761,25.1751,25.1746,-0.0195,-0.1517,0.0000,inf,,0.0000,2.6000,134731.3594,12.5216,55.6721,b'N',b'E',b'A',b'A',0.0000
1,3,2.0740,9.8671,-0.1483,-0.0287,14.8348,-5.4963,-7.8065,,,0.0000,0.0000,0.0000,3.4704,2.7990,6.8235,14.4376,-5.0137,-8.1346,25.5090,25.5086,-0.0245,-0.1527,0.0000,inf,,0.0000,2.6000,134731.3594,12.5216,55.6721,b'N',b'E',b'A',b'A',0.0000
1,3,2.1080,9.6805,0.0383,0.1914,8.6702,-2.2614,14.7768,,,0.0000,0.0000,0.0000,3.5664,2.6760,7.1190,9.3529,-3.1762,14.6235,25.7090,25.7085,-0.0238,-0.1487,0.0000,inf,,0.0000,2.6000,134731.3594,12.5216,55.6721,b'N',b'E',b'A',b'A',0.0000
1,3,2.1280,9.6375,-0.1675,0.1101,17.0321,0.3632,2.6307,,,0.0000,0.0000,0.0000,4.0157,2.6201,7.1980,17.1534,0.1780,2.6524,25.9942,25.9938,-0.0287,-0.1455,0.0000,inf,,0.0000,2.6000,134731.3594,12.5216,55.6721,b'N',b'E',b'A',b'A',0.0000
1,3,2.1580,9.7714,0.1531,-0.0670,12.3323,-3.6042,22.9557,,,0.0000,0.0000,0.0000,4.2800,2.4696,7.8866,13.3080,-5.3073,22.6437,26.2869,26.2865,-0.0241,-0.1475,0.0000,inf,,0.0000,2.6000,134731.3594,12.5216,55.6721,b'N',b'E',b'A',b'A',0.0000
1,3,2.1880,9.8241,0.0574,0.0622,17.6425,-7.7546,8.6122,,,0.0000,0.0000,0.0000,4.7064,2.1849,8.1450,17.9457,-8.4351,7.9527,26.5818,26.5814,-0.0224,-0.1456,0.0000,inf,,0.0000,2.6000,134731.3594,12.5216,55.6721,b'N',b'E',b'A',b'A',0.0000
1,3,2.2180,9.9150,-0.1914,-0.1388,-19.2233,20.1389,-2.9236,,,0.0000,0.0000,0.0000,3.8808,2.9467,8.0281,-19.3033,20.2906,-1.5560,26.9784,26.9779,-0.0301,-0.1512,0.0000,inf,,0.0000,2.6000,134731.3594,12.5216,55.6721,b'N',b'E',b'A',b'A',0.0000
1,3,2.2580,9.8241,0.0335,-0.1627,-14.2794,-7.7546,-2.4964,,,0.0000,0.0000,0.0000,3.3795,2.6788,7.9532,-14.4174,-7.5940,-2.9524,27.2713,27.2709,-0.0291,-0.1560,0.0000,inf,,0.0000,2.6000,134732.0000,12.5216,55.6721,b'N',b'E',b'A',b'A',0.0000
1,3,2.2880,9.6327,0.1866,0.1962,-8.2368,7.6265,-1.1536,,,0.0000,0.0000,0.0000,3.0475,2.8261,7.9186,-8.2737,7.6770,-0.7474,27.5624,27.5619,-0.0234,-0.1501,0.0000,inf,,0.0000,2.6000,134732.0000,12.5216,55.6721,b'N',b'E',b'A',b'A',0.0000
1,3,2.3180,9.8815,0.1531,-0.1914,10.5623,-0.1862,-6.0975,,,0.0000,0.0000,0.0000,3.2794,2.7863,7.7356,10.2655,0.1629,-6.1054,27.8570,27.8565,-0.0189,-0.1558,0.0000,inf,,0.0000,2.6000,134732.0000,12.5216,55.6721,b'N',b'E',b'A',b'A',0.0000
1,3,2.3480,9.6279,0.1818,-0.0431,-4.2695,12.2652,-3.1067,,,0.0000,0.0000,0.0000,3.0666,3.0963,7.6424,-4.4018,12.4138,-2.4497,28.1442,28.1438,-0.0134,-0.1571,0.0000,inf,,0.0000,2.6000,134732.0000,12.5216,55.6721,b'N',b'E',b'A',b'A',0.0000
1,3,2.3780,9.7332,0.0048,0.0239,10.4402,-8.0598,-12.9335,,,0.0000,0.0000,0.0000,3.3219,2.7867,7.2415,9.7890,-7.2968,-13.3947,28.4488,28.4483,-0.0133,-0.1563,0.0000,inf,,0.0000,2.6000,134732.0000,12.5216,55.6721,b'N',b'E',b'A',b'A',0.0000
1,3,2.4090,9.7044,-0.1101,0.0239,-11.4107,8.7251,-2.9236,,,0.0000,0.0000,0.0000,2.9106,3.0017,7.1479,-11.5406,8.8623,-2.4802,28.7602,28.7597,-0.0168,-0.1556,0.0000,inf,,0.0000,2.6000,134732.0000,12.5216,55.6721,b'N',b'E',b'A',b'A',0.0000
1,3,2.4410,9.6518,0.1101,-0.1388,-14.1573,16.5377,-7.8676,,,0.0000,0.0000,0.0000,2.3676,3.5092,6.8804,-14.5975,16.8486,-7.1911,29.0831,29.0827,-0.0131,-0.1602,0.0000,inf,,0.0000,2.6000,134732.0000,12.5216,55.6721,b'N',b'E',b'A',b'A',0.0000
1,3,2.4750,9.8097,-0.0766,0.0909,-1.5839,15.5611,14.8379,,,0.0000,0.0000,0.0000,2.2811,3.9012,7.3404,-0.5306,14.9582,15.4813,29.3934,29.3930,-0.0155,-0.1573,0.0000,inf,,0.0000,2.6000,134732.0000,12.5216,55.6721,b'N',b'E',b'A',b'A',0.0000
1,3,2.5060,9.6518,-0.1531,-0.1101,-11.7769,16.2936,-6.5248,,,0.0000,0.0000,0.0000,1.8843,4.3472,7.1316,-12.2319,16.4993,-6.0027,29.7016,29.7011,-0.0204,-0.1608,0.0000,inf,,0.0000,2.6000,134732.0000,12.5216,55.6721,b'N',b'E',b'A',b'A',0.0000
1,3,2.5380,9.8145,-0.0813,-0.1914,-12.7535,5.9174,16.3027,,,0.0000,0.0000,0.0000,1.4812,4.4565,7.6207,-11.4714,5.4941,16.5001,29.9987,29.9982,-0.0229,-0.1666,0.0000,inf,,0.0000,2.6000,134732.0000,12.5216,55.6721,b'N',b'E',b'A',b'A',0.0000
1,3,2.5680,9.7427,0.1101,-0.0622,14.0414,-1.2848,6.1707,,,0.0000,0.0000,0.0000,2.0028,4.3231,7.8737,14.5042,-1.4997,6.1395,30.3924,30.3919,-0.0185,-0.1692,0.0000,inf,,0.0000,2.6000,134732.0000,12.5216,55.6721,b'N',b'E',b'A',b'A',0.0000
1,3,2.6090,9.9198,0.0144,0.1627,13.9193,-14.4686,-9.4545,,,0.0000,0.0000,0.0000,2.4931,3.6649,7.5050,13.2740,-14.0437,-10.0955,30.7798,30.7794,-0.0179,-0.1628,0.0000,inf,,0.0000,2.6000,134732.0000,12.5216,55.6721,b'N',b'E',b'A',b'A',0.0000
1,3,2.6480,9.8336,-0.1675,0.0622,-19.7726,5.0629,15.0820,,,0.0000,0.0000,0.0000,1.8814,3.7332,7.9574,-18.7782,4.5651,15.2725,31.0774,31.0770,-0.0230,-0.1609,0.0000,inf,,0.0000,2.6000,134732.0000,12.5216,55.6721,b'N',b'E',b'A',b'A',0.0000
1,3,2.6780,9.6709,0.0957,0.1483,-12.2042,-2.9328,17.7066,,,0.0000,0.0000,0.0000,1.4736,3.5547,8.4886,-11.1093,-3.3872,17.6593,31.3674,31.3670,-0.0201,-0.1565,0.0000,inf,,0.0000,3.2000,134732.0000,12.5216,55.6721,b'N',b'E',b'A',b'A',0.0000
1,3,2.7080,9.8576,-0.1962,0.1053,-19.5285,22.3972,3.3631,,,0.0000,0.0000,0.0000,1.0842,3.9104,8.5559,-19.2697,22.3295,3.7951,31.5662,31.5658,-0.0240,-0.1543,0.0000,inf,,0.0000,3.2000,134732.0000,12.5216,55.6721,b'N',b'E',b'A',b'A',0.0000
1,3,2.7280,9.7427,-0.1866,-0.1101,-17.2702,-12.3934,3.3631,,,0.0000,0.0000,0.0000,0.5767,3.4807,8.6568,-17.0732,-12.4266,3.2442,31.8574,31.8570,-0.0296,-0.1576,0.0000,inf,,0.0000,3.2000,134732.0000,12.5216,55.6721,b'N',b'E',b'A',b'A',0.0000
1,3,2.7580,9.6087,-0.1723,0.0622,-6.6499,-15.9945,19.2325,,,0.0000,0.0000,0.0000,0.3902,2.9335,9.2338,-5.6700,-16.1251,19.1482,32.1470,32.1466,-0.0348,-0.1558,0.0000,inf,,0.0000,3.2000,134732.0000,12.5216,55.6721,b'N',b'E',b'A',b'A',0.0000
1,3,2.7880,9.7954,-0.0287,0.1053,6.2898,-1.9562,0.0061,,,0.0000,0.0000,0.0000,0.6323,2.7858,9.2340,6.2890,-1.9562,-0.0155,32.5369,32.5365,-0.0360,-0.1516,0.0000,inf,,0.0000,3.2000,134732.0000,12.5216,55.6721,b'N',b'E',b'A',b'A',0.0000
1,3,2.8280,9.9485,0.0000,-0.0813,19.6567,16.2325,16.1807,,,0.0000,0.0000,0.0000,1.0242,3.0735,9.5738,20.5409,15.9407,16.4920,32.7404,32.7400,-0.0360,-0.1532,0.0000,inf,,0.0000,3.2000,134732.0000,12.5216,55.6721,b'N',b'E',b'A',b'A',0.0000
1,3,2.8490,9.8767,-0.1196,-0.0479,-15.7443,4.2084,8.9784,,,0.0000,0.0000,0.0000,0.4159,3.1784,9.9240,-15.2440,4.1432,9.0226,33.1310,33.1307,-0.0407,-0.1551,0.0000,inf,,0.0000,3.2000,134733.0000,12.5216,55.6721,b'N',b'E',b'A',b'A',0.0000
1,3,2.8880,9.7714,0.0861,0.1675,2.6886,-11.7830,6.1097,,,0.0000,0.0000,0.0000,0.4765,2.7488,10.1073,2.9773,-11.8334,6.0184,33.4249,33.4245,-0.0381,-0.1501,0.0000,inf,,0.0000,3.2000,134733.0000,12.5216,55.6721,b'N',b'E',b'A',b'A',0.0000
1,3,2.9180,9.7571,0.1005,-0.1866,17.6425,1.9501,-9.1493,,,0.0000,0.0000,0.0000,0.9739,2.7731,9.8328,17.2010,2.1053,-9.1255,33.7150,33.7147,-0.0351,-0.1556,0.0000,inf,,0.0000,3.2000,134733.0000,12.5216,55.6721,b'N',b'E',b'A',b'A',0.0000
1,3,2.9480,9.9724,-0.1005,-0.0718,-12.1431,-3.9704,21.5518,,,0.0000,0.0000,0.0000,0.7279,2.6481,10.2638,-11.1488,-4.2439,21.5226,33.9193,33.9189,-0.0372,-0.1571,0.0000,inf,,0.0000,3.2000,134733.0000,12.5216,55.6721,b'N',b'E',b'A',b'A',0.0000
1,3,2.9680,9.9341,0.1483,0.0335,-10.7393,-16.4218,-0.9094,,,0.0000,0.0000,0.0000,0.2753,1.9475,10.2274,-10.7729,-16.4172,-0.9889,34.3109,34.3106,-0.0313,-0.1558,0.0000,inf,,0.0000,3.2000,134733.0000,12.5216,55.6721,b'N',b'E',b'A',b'A',0.0000
1,3,3.0080,9.7667,0.0479,-0.1292,-9.0913,-4.7028,-6.2196,,,0.0000,0.0000,0.0000,0.0860,1.8315,10.1030,-9.2904,-4.6935,-6.2298,34.5080,34.5077,-0.0304,-0.1584,0.0000,inf,,0.0000,3.2000,134733.0000,12.5216,55.6721,b'N',b'E',b'A',b'A',0.0000
1,3,3.0280,9.6566,0.0479,0.0287,3.7263,-0.2472,8.5512,,,0.0000,0.0000,0.0000,0.2246,1.7818,10.4451,3.9922,-0.2807,8.5543,34.8932,34.8928,-0.0284,-0.1573,0.0000,inf,,0.0000,3.2000,134733.0000,12.5216,55.6721,b'N',b'E',b'A',b'A',0.0000
1,3,3.0680,9.9628,0.1340,-0.1531,13.0037,4.2695,2.3255,,,0.0000,0.0000,0.0000,0.7272,1.9353,10.5404,13.0841,4.2396,2.3808,35.2981,35.2977,-0.0230,-0.1635,0.0000,inf,,0.0000,3.2000,134733.0000,12.5216,55.6721,b'N',b'E',b'A',b'A',0.0000
1,3,3.1090,9.6327,-0.0574,0.0957,-18.6740,-16.4828,-0.6653,,,0.0000,0.0000,0.0000,0.0058,1.2553,10.5145,-18.6886,-16.4827,-0.6671,35.6821,35.6817,-0.0253,-0.1597,0.0000,inf,,0.0000,3.2000,134733.0000,12.5216,55.6721,b'N',b'E',b'A',b'A',0.0000
1,3,3.1480,9.8576,-0.1818,-0.0766,14.6517,-15.3231,-15.4971,,,0.0000,0.0000,0.0000,0.6012,0.6384,9.8946,14.4773,-15.1597,-15.6580,36.0770,36.0766,-0.0326,-0.1627,0.0000,inf,,0.0000,3.2000,134733.0000,12.5216,55.6721,b'N',b'E',b'A',b'A',0.0000
1,3,3.1880,9.8719,0.1148,-0.1101,3.8483,-2.0783,-6.9520,,,0.0000,0.0000,0.0000,0.7267,0.5569,9.6165,3.7805,-1.9899,-6.9781,36.4683,36.4679,-0.0280,-0.1671,0.0000,inf,,0.0000,3.2000,134733.0000,12.5216,55.6721,b'N',b'E',b'A',b'A',0.0000
1,3,3.2280,9.8671,0.1866,-0.1292,7.7546,-10.0740,12.0912,,,0.0000,0.0000,0.0000,0.9184,0.2646,9.9793,7.8097,-10.2665,11.9283,36.7643,36.7639,-0.0224,-0.1710,0.0000,inf,,0.0000,3.2000,134733.0000,12.5216,55.6721,b'N',b'E',b'A',b'A',0.0000
1,3,3.2580,9.7044,-0.0479,-0.1101,0.4913,20.3830,11.7250,,,0.0000,0.0000,0.0000,0.9202,0.8716,10.3310,0.6747,20.1921,12.0523,37.0525,37.0521,-0.0238,-0.1742,0.0000,inf,,0.0000,3.2000,134733.0000,12.5216,55.6721,b'N',b'E',b'A',b'A',0.0000
1,3,3.2880,9.8624,0.1627,-0.0191,-5.7954,-15.0179,19.1714,,,0.0000,0.0000,0.0000,0.7693,0.5620,10.7144,-5.6093,-15.2740,18.9690,37.2510,37.2506,-0.0206,-0.1746,0.0000,inf,,0.0000,3.2000,134734.0000,12.5216,55.6721,b'N',b'E',b'A',b'A',0.0000
1,3,3.3080,9.7188,0.0957,0.0909,1.1017,1.8891,-2.1302,,,0.0000,0.0000,0.0000,0.7750,0.5956,10.6505,1.0798,1.9177,-2.1045,37.5420,37.5416,-0.0177,-0.1719,0.0000,inf,,0.0000,3.2000,134734.0000,12.5216,55.6721,b'N',b'E',b'A',b'A',0.0000
1,3,3.3380,9.6805,-0.1005,-0.1962,-18.7350,-7.2053,-13.0556,,,0.0000,0.0000,0.0000,0.0370,0.3245,10.1283,-18.8090,-7.1969,-13.0605,37.9286,37.9282,-0.0217,-0.1797,0.0000,inf,,0.0000,3.2000,134734.0000,12.5216,55.6721,b'N',b'E',b'A',b'A',0.0000
1,3,3.3780,9.8289,0.0048,-0.0718,-11.5328,-16.1776,20.0870,,,0.0000,0.0000,0.0000,-0.3147,-0.1651,10.7510,-11.5909,-16.0670,20.1756,38.2358,38.2354,-0.0216,-0.1820,0.0000,inf,,0.0000,3.2000,134734.0000,12.5216,55.6721,b'N',b'E',b'A',b'A',0.0000
1,3,3.4090,9.9868,0.0718,-0.0335,-11.8990,3.3539,8.8563,,,0.0000,0.0000,0.0000,-0.6781,-0.0561,11.0256,-11.9076,3.4585,8.8160,38.5476,38.5471,-0.0193,-0.1830,0.0000,inf,,0.0000,3.2000,134734.0000,12.5216,55.6721,b'N',b'E',b'A',b'A',0.0000
1,3,3.4400,9.8001,-0.0670,0.1818,1.4069,9.7017,2.2644,,,0.0000,0.0000,0.0000,-0.6181,0.1900,11.0890,1.4140,9.7255,2.1597,38.8176,38.8171,-0.0212,-0.1780,0.0000,inf,,0.0000,3.2000,134734.0000,12.5216,55.6721,b'N',b'E',b'A',b'A',0.0000
1,3,3.4680,9.9772,-0.0957,0.1436,-5.2461,-0.3082,-9.0883,,,0.0000,0.0000,0.0000,-0.7541,0.1603,10.8072,-5.2715,-0.4278,-9.0835,39.1286,39.1282,-0.0242,-0.1735,0.0000,inf,,0.0000,3.2000,134734.0000,12.5216,55.6721,b'N',b'E',b'A',b'A',0.0000
1,3,3.4990,9.7379,0.0144,0.0718,-7.9316,-7.2053,21.5518,,,0.0000,0.0000,0.0000,-0.9895,-0.0773,11.4969,-7.9609,-6.8321,21.6731,39.4420,39.4416,-0.0237,-0.1712,0.0000,inf,,0.0000,3.2000,134734.0000,12.5216,55.6721,b'N',b'E',b'A',b'A',0.0000
1,3,3.5310,9.6087,-0.0909,-0.0096,0.3693,-2.2004,-12.0790,,,0.0000,0.0000,0.0000,-0.9473,-0.1436,11.1103,0.3994,-2.3997,-12.0411,39.7484,39.7480,-0.0266,-0.1715,0.0000,inf,,0.0000,3.2000,134734.0000,12.5216,55.6721,b'N',b'E',b'A',b'A',0.0000
1,3,3.5630,9.9581,-0.1292,-0.1340,-5.6733,13.8521,11.0536,,,0.0000,0.0000,0.0000,-1.0525,0.2141,11.3867,-5.6330,14.0528,10.7974,39.9968,39.9964,-0.0298,-0.1749,0.0000,inf,,0.0000,3.2000,134734.0000,12.5216,55.6721,b'N',b'E',b'A',b'A',0.0000
1,3,3.5880,9.9341,-0.0574,0.0909,-11.8990,0.1801,18.6831,,,0.0000,0.0000,0.0000,-1.3746,0.2046,11.9472,-11.8323,0.6282,18.6736,40.2951,40.2947,-0.0315,-0.1721,0.0000,inf,,0.0000,3.2000,134734.0000,12.5216,55.6721,b'N',b'E',b'A',b'A',0.0000
1,3,3.6180,9.6709,0.0287,-0.0526,-16.8429,1.5229,4.4617,,,0.0000,0.0000,0.0000,-1.8457,0.2515,12.0810,-16.8235,1.6658,4.4104,40.5852,40.5849,-0.0307,-0.1737,0.0000,inf,,0.0000,3.2000,134734.0000,12.5216,55.6721,b'N',b'E',b'A',b'A',0.0000
1,3,3.6480,9.9581,-0.1436,0.1292,5.5573,-13.6141,14.7768,,,0.0000,0.0000,0.0000,-1.6289,-0.1686,12.5243,5.5127,-13.1886,15.1579,40.8846,40.8843,-0.0350,-0.1698,0.0000,inf,,0.0000,3.2000,134734.0000,12.5216,55.6721,b'N',b'E',b'A',b'A',0.0000
1,3,3.6780,9.9485,-0.1340,-0.0335,-1.4008,-0.7965,17.4624,,,0.0000,0.0000,0.0000,-1.6221,-0.1848,13.0482,-1.4572,-0.3019,17.4781,41.1860,41.1856,-0.0391,-0.1709,0.0000,inf,,0.0000,3.2000,34138.0000,-105.1125,39.8980,b'N',b'W',b'A',b'A',0.0000
1,3,3.7080,9.7571,-0.1005,-0.1914,-20.0778,18.8571,1.5320,,,0.0000,0.0000,0.0000,-2.3649,0.5805,13.1095,-20.0702,18.9043,0.7526,41.5714,41.5710,-0.0430,-0.1784,0.0000,inf,,0.0000,3.2000,34138.0000,-105.1125,39.8980,b'N',b'W',b'A',b'A',0.0000
1,3,3.7480,9.9581,-0.1627,0.0000,-17.8805,11.7159,17.0962,,,0.0000,0.0000,0.0000,-2.8421,0.9249,13.6395,-17.6143,12.5491,16.4964,41.8772,41.8768,-0.0480,-0.1784,0.0000,inf,,0.0000,3.2000,34138.0000,-105.1125,39.8980,b'N',b'W',b'A',b'A',0.0000
1,3,3.7790,9.9916,0.0861,0.1818,11.5389,14.3404,11.9692,,,0.0000,0.0000,0.0000,-2.3541,1.4336,14.1063,11.8234,14.8200,11.3736,42.2756,42.2752,-0.0446,-0.1712,0.0000,inf,,0.0000,3.2000,34138.0000,-105.1125,39.8980,b'N',b'W',b'A',b'A',0.0000
1,3,3.8180,9.6709,-0.0670,0.0191,18.3139,-15.4452,14.7158,,,0.0000,0.0000,0.0000,-1.7606,0.9486,14.5477,18.5653,-14.9858,15.1855,42.5600,42.5597,-0.0466,-0.1706,0.0000,inf,,0.0000,3.2000,34138.0000,-105.1125,39.8980,b'N',b'W',b'A',b'A',0.0000
1,3,3.8480,9.7762,0.1340,0.1914,3.6652,1.7060,2.0813,,,0.0000,0.0000,0.0000,-1.5974,0.9740,14.6310,3.6998,1.7633,2.0333,42.9510,42.9507,-0.0412,-0.1629,0.0000,inf,,0.0000,3.2000,34138.0000,-105.1125,39.8980,b'N',b'W',b'A',b'A',0.0000
1,3,3.8880,9.6518,-0.0191,-0.1579,17.5204,-15.0179,-13.7270,,,0.0000,0.0000,0.0000,-1.0481,0.5318,14.2192,17.3956,-15.2665,-13.4506,43.2415,43.2412,-0.0418,-0.1677,0.0000,inf,,0.0000,3.2000,34138.0000,-105.1125,39.8980,b'N',b'W',b'A',b'A',0.0000
1,3,3.9180,9.9389,0.1771,0.1148,10.1350,19.2233,-0.4211,,,0.0000,0.0000,0.0000,-0.7496,1.0731,14.2066,10.1224,19.2162,-0.6727,43.5421,43.5417,-0.0364,-0.1642,0.0000,inf,,0.0000,3.2000,202725.0000,-114.0307,51.1504,b'N',b'W',b'A',b'A',0.0000
1,3,3.9480,9.6901,0.1531,0.0096,10.8675,-9.0974,2.0203,,,0.0000,0.0000,0.0000,-0.3267,0.6939,14.2874,10.8926,-9.0858,2.0723,43.9321,43.9318,-0.0303,-0.1638,0.0000,inf,,0.0000,3.2000,202725.0000,-114.0307,51.1504,b'N',b'W',b'A',b'A',0.0000
1,3,3.9880,9.7667,0.1627,-0.0431,0.0031,13.4249,-6.4027,,,0.0000,0.0000,0.0000,-0.3391,1.2113,14.0313,-0.1340,13.3868,-6.4835,44.3173,44.3170,-0.0238,-0.1655,0.0000,inf,,0.0000,3.2000,202725.0000,-114.0307,51.1504,b'N',b'W',b'A',b'A',0.0000
1,3,4.0280,9.7284,-0.1579,-0.0479,19.6567,11.6548,-3.5950,,,0.0000,0.0000,0.0000,0.2641,1.5354,13.9234,19.5618,11.6713,-3.5425,44.6137,44.6134,-0.0287,-0.1670,0.0000,inf,,0.0000,3.2000,202725.0000,-114.0307,51.1504,b'N',b'W',b'A',b'A',0.0000
1,3,4.0580,9.6662,0.0574,-0.1196,-12.6925,-5.8625,-11.5297,,,0.0000,0.0000,0.0000,-0.1211,1.3465,13.5775,-12.9632,-5.8869,-11.5205,44.9000,44.8996,-0.0269,-0.1705,0.0000,inf,,0.0000,3.2000,202725.0000,-114.0307,51.1504,b'N',b'W',b'A',b'A',0.0000
1,3,4.0880,9.7619,-0.1148,0.1436,-17.0260,-0.6744,-0.6043,,,0.0000,0.0000,0.0000,-0.6058,1.2829,13.5594,-17.0394,-0.6808,-0.5972,45.1960,45.1957,-0.0304,-0.1662,0.0000,inf,,0.0000,3.2000,202725.0000,-114.0307,51.1504,b'N',b'W',b'A',b'A',0.0000
1,3,4.1180,9.9294,-0.0431,0.0000,-13.0587,13.8521,22.4674,,,0.0000,0.0000,0.0000,-0.9726,1.6645,14.2334,-12.4127,14.2315,22.2384,45.4907,45.4903,-0.0317,-0.1662,0.0000,inf,,0.0000,3.2000,134730.3594,12.5214,55.6720,b'N',b'E',b'A',b'A',0.0000
1,3,4.1480,9.8719,0.1866,-0.1962,-8.8472,-8.1819,21.6129,,,0.0000,0.0000,0.0000,-1.2349,1.4134,14.8818,-8.3097,-7.7142,21.7908,45.7893,45.7889,-0.0261,-0.1721,0.0000,inf,,0.0000,3.2000,134730.3594,12.5214,55.6720,b'N',b'E',b'A',b'A',0.0000
1,3,4.1780,9.7762,-0.0622,0.0670,13.6751,18.5519,1.5320,,,0.0000,0.0000,0.0000,-0.6669,2.1045,14.9431,13.7235,18.5685,1.3169,46.1786,46.1783,-0.0285,-0.1695,0.0000,inf,,0.0000,3.2000,134730.3594,12.5214,55.6720,b'N',b'E',b'A',b'A',0.0000
1,3,4.2180,9.9054,-0.0957,-0.1436,-6.1006,-16.4218,-13.2998,,,0.0000,0.0000,0.0000,-0.8218,1.5962,14.5441,-6.4646,-16.6108,-13.0679,46.4737,46.4734,-0.0314,-0.1737,0.0000,inf,,0.0000,3.2000,134730.3594,12.5214,55.6720,b'N',b'E',b'A',b'A',0.0000
1,3,4.2480,9.9916,-0.0144,-0.0622,-15.3780,15.9274,18.3169,,,0.0000,0.0000,0.0000,-1.2558,2.0397,15.0936,-14.7383,16.3250,17.9748,46.7760,46.7756,-0.0318,-0.1756,0.0000,inf,,0.0000,3.2000,134730.3594,12.5214,55.6720,b'N',b'E',b'A',b'A',0.0000
1,3,4.2780,9.9246,-0.0048,-0.0622,5.1301,21.4206,-15.5581,,,0.0000,0.0000,0.0000,-1.0794,2.6358,14.6269,4.3954,21.1237,-15.9757,47.0710,47.0706,-0.0320,-0.1775,0.0000,inf,,0.0000,3.2000,134730.3594,12.5214,55.6720,b'N',b'E',b'A',b'A',0.0000
1,3,4.3080,9.8336,-0.1483,-0.1005,0.7355,21.4206,23.8712,,,0.0000,0.0000,0.0000,-1.0189,3.2246,15.3430,2.0587,21.8417,23.5238,47.3722,47.3719,-0.0365,-0.1805,0.0000,inf,,0.0000,3.2000,134731.3594,12.5216,55.6721,b'N',b'E',b'A',b'A',0.0000
1,3,4.3380,9.8193,-0.1388,-0.1627,-15.9884,-13.6141,-13.9712,,,0.0000,0.0000,0.0000,-1.6090,2.6454,14.7841,-16.6160,-14.0010,-13.5979,47.7574,47.7570,-0.0420,-0.1869,0.0000,inf,,0.0000,3.2000,134731.3594,12.5216,55.6721,b'N',b'E',b'A',b'A',0.0000
1,3,4.3780,9.5992,0.0000,-0.1866,-12.4483,8.1758,-0.4822,,,0.0000,0.0000,0.0000,-1.9428,2.8552,14.7697,-12.4862,8.1547,-0.7600,48.0533,48.0529,-0.0420,-0.1927,0.0000,inf,,0.0000,3.2000,134731.3594,12.5216,55.6721,b'N',b'E',b'A',b'A',0.0000
1,3,4.4090,9.8001,0.0574,0.0813,-4.8188,2.8046,10.0160,,,0.0000,0.0000,0.0000,-2.0618,2.8765,15.0902,-4.3209,3.1631,9.9211,48.3611,48.3607,-0.0402,-0.1901,0.0000,inf,,0.0000,3.2000,134731.3594,12.5216,55.6721,b'N',b'E',b'A',b'A',0.0000
1,3,4.4400,9.7332,0.0574,-0.1771,5.1301,10.2510,20.8194,,,0.0000,0.0000,0.0000,-1.8715,3.1512,15.7356,6.2573,10.9255,20.5045,48.6629,48.6625,-0.0384,-0.1956,0.0000,inf,,0.0000,3.2000,134731.3594,12.5216,55.6721,b'N',b'E',b'A',b'A',0.0000
1,3,4.4710,9.8528,-0.0861,0.1627,7.2053,-16.9711,20.3311,,,0.0000,0.0000,0.0000,-1.5486,2.4207,16.5285,8.0839,-16.4154,20.8009,49.0476,49.0472,-0.0417,-0.1893,0.0000,inf,,0.0000,3.2000,134731.3594,12.5216,55.6721,b'N',b'E',b'A',b'A',0.0000
1,3,4.5100,9.6087,-0.1818,-0.1914,15.5062,8.3589,12.5795,,,0.0000,0.0000,0.0000,-1.0249,2.6490,16.9185,16.0812,8.5826,12.4413,49.3487,49.3483,-0.0474,-0.1953,0.0000,inf,,0.0000,3.2000,134731.3594,12.5216,55.6721,b'N',b'E',b'A',b'A',0.0000
1,3,4.5410,9.7379,-0.0144,-0.1914,-0.6073,9.7627,-12.2011,,,0.0000,0.0000,0.0000,-1.0188,2.8769,16.5890,-1.2291,9.5442,-12.3884,49.6089,49.6084,-0.0478,-0.2004,0.0000,inf,,0.0000,2.6000,134731.3594,12.5216,55.6721,b'N',b'E',b'A',b'A',0.0000
1,3,4.5680,9.7667,-0.0048,0.1675,10.3181,19.8337,-10.6142,,,0.0000,0.0000,0.0000,-0.7956,3.1884,16.3768,9.7116,19.6844,-10.9054,49.8041,49.8037,-0.0479,-0.1970,0.0000,inf,,0.0000,2.6000,134731.3594,12.5216,55.6721,b'N',b'E',b'A',b'A',0.0000
1,3,4.5880,9.9294,-0.0191,-0.1196,-3.4150,6.8940,16.3027,,,0.0000,0.0000,0.0000,-0.9114,3.4087,17.0289,-2.4506,7.1525,16.2197,50.1990,50.1986,-0.0487,-0.2018,0.0000,inf,,0.0000,2.6000,134731.3594,12.5216,55.6721,b'N',b'E',b'A',b'A',0.0000
1,3,4.6280,9.8336,0.0861,0.0144,-14.7677,-6.7781,-3.1678,,,0.0000,0.0000,0.0000,-1.3373,3.1396,16.9338,-14.9327,-6.8501,-3.0132,50.4939,50.4934,-0.0461,-0.2013,0.0000,inf,,0.0000,2.6000,134731.3594,12.5216,55.6721,b'N',b'E',b'A',b'A',0.0000
1,3,4.6580,9.9150,0.0191,-0.0670,5.4353,-5.3742,-15.4360,,,0.0000,0.0000,0.0000,-1.1530,2.9265,16.4707,4.6518,-5.6838,-15.3448,50.7938,50.7933,-0.0455,-0.2034,0.0000,inf,,0.0000,2.6000,134731.3594,12.5216,55.6721,b'N',b'E',b'A',b'A',0.0000
1,3,4.6880,9.6135,-0.1818,-0.0766,6.6560,-0.6744,6.4149,,,0.0000,0.0000,0.0000,-0.8800,2.8540,16.6953,6.9763,-0.5758,6.4325,51.1308,51.1303,-0.0519,-0.2061,0.0000,inf,,0.0000,2.6000,134731.3594,12.5216,55.6721,b'N',b'E',b'A',b'A',0.0000
1,3,4.7230,9.7858,-0.0957,-0.1148,-17.2702,17.7584,16.8521,,,0.0000,0.0000,0.0000,-1.2743,3.2454,17.1166,-16.3372,18.1288,16.4794,51.3798,51.3793,-0.0543,-0.2090,0.0000,inf,,0.0000,2.6000,134732.0000,12.5216,55.6721,b'N',b'E',b'A',b'A',0.0000
1,3,4.7490,9.9628,-0.0239,-0.0622,4.5197,-2.7497,-3.7781,,,0.0000,0.0000,0.0000,-1.1132,3.1068,17.0032,4.3176,-2.8226,-3.7295,51.6772,51.6767,-0.0550,-0.2108,0.0000,inf,,0.0000,2.6000,134732.0000,12.5216,55.6721,b'N',b'E',b'A',b'A',0.0000
1,3,4.7780,9.6566,-0.0431,-0.1053,2.2004,6.1006,1.7151,,,0.0000,0.0000,0.0000,-0.9995,3.2963,17.0718,2.2930,6.1295,1.6111,52.0609,52.0604,-0.0567,-0.2150,0.0000,inf,,0.0000,2.6000,134732.0000,12.5216,55.6721,b'N',b'E',b'A',b'A',0.0000
1,3,4.8180,9.8959,-0.1866,-0.1866,-7.5044,-7.5105,4.3397,,,0.0000,0.0000,0.0000,-1.1050,3.1048,17.1586,-7.2612,-7.4254,4.4903,52.2566,52.2561,-0.0604,-0.2187,0.0000,inf,,0.0000,2.6000,134732.0000,12.5216,55.6721,b'N',b'E',b'A',b'A',0.0000
1,3,4.8380,9.6757,-0.0096,-0.0813,10.6233,6.7109,4.2176,,,0.0000,0.0000,0.0000,-0.6654,3.3154,17.3273,10.8631,6.7594,4.1463,52.6464,52.6459,-0.0608,-0.2220,0.0000,inf,,0.0000,2.6000,134732.0000,12.5216,55.6721,b'N',b'E',b'A',b'A',0.0000
1,3,4.8780,9.7714,-0.0670,0.1483,-1.7060,-6.5339,13.6782,,,0.0000,0.0000,0.0000,-0.6944,3.0396,17.7377,-0.9755,-6.3677,13.7757,52.9388,52.9383,-0.0628,-0.2175,0.0000,inf,,0.0000,2.6000,134732.0000,12.5216,55.6721,b'N',b'E',b'A',b'A',0.0000
1,3,4.9080,9.9198,-0.0335,0.0670,-18.8571,-6.1677,-12.5063,,,0.0000,0.0000,0.0000,-1.2310,2.7898,17.3625,-19.4599,-6.4349,-12.3856,53.2357,53.2352,-0.0638,-0.2155,0.0000,inf,,0.0000,2.6000,134732.0000,12.5216,55.6721,b'N',b'E',b'A',b'A',0.0000
1,3,4.9380,9.7044,0.1962,-0.0287,8.2429,4.7578,-7.3793,,,0.0000,0.0000,0.0000,-1.0680,2.8306,17.2149,7.8737,4.6194,-7.4758,53.4299,53.4294,-0.0599,-0.2161,0.0000,inf,,0.0000,2.6000,134732.0000,12.5216,55.6721,b'N',b'E',b'A',b'A',0.0000
1,3,4.9580,9.7475,-0.0144,0.1340,-2.1942,10.4341,12.3964,,,0.0000,0.0000,0.0000,-1.1309,3.1673,17.7108,-1.5198,10.6768,12.2067,53.8170,53.8166,-0.0605,-0.2108,0.0000,inf,,0.0000,2.6000,134732.0000,12.5216,55.6721,b'N',b'E',b'A',b'A',0.0000
1,3,4.9980,9.7044,0.1340,0.0670,14.8959,-15.6893,-5.5482,,,0.0000,0.0000,0.0000,-0.6862,2.6347,17.5443,14.6492,-15.7546,-5.3656,54.1092,54.1087,-0.0564,-0.2088,0.0000,inf,,0.0000,2.6000,134732.0000,12.5216,55.6721,b'N',b'E',b'A',b'A',0.0000
1,3,5.0280,9.9437,0.0670,0.1340,-14.4015,14.2794,-8.4779,,,0.0000,0.0000,0.0000,-0.9625,2.8465,17.3748,-14.8349,14.1350,-8.7273,54.3104,54.3100,-0.0551,-0.2061,0.0000,inf,,0.0000,2.6000,134732.0000,12.5216,55.6721,b'N',b'E',b'A',b'A',0.0000
1,3,5.0480,9.7284,-0.1101,0.0000,-9.9458,-3.8483,11.9692,,,0.0000,0.0000,0.0000,-1.3201,2.6387,17.8535,-9.3903,-3.5715,12.0675,54.6973,54.6969,-0.0595,-0.2061,0.0000,inf,,0.0000,2.6000,134732.0000,12.5216,55.6721,b'N',b'E',b'A',b'A',0.0000
1,3,5.0880,9.6566,0.0909,-0.1771,13.4310,-15.0179,-5.3651,,,0.0000,0.0000,0.0000,-0.9097,2.1654,17.6926,13.2372,-15.1012,-5.1296,54.9891,54.9886,-0.0567,-0.2114,0.0000,inf,,0.0000,2.6000,134732.0000,12.5216,55.6721,b'N',b'E',b'A',b'A',0.0000
1,3,5.1180,9.6040,0.1005,0.1962,16.2997,-15.0179,5.9876,,,0.0000,0.0000,0.0000,-0.4242,1.6572,17.8722,16.4761,-14.9732,6.1012,55.2743,55.2739,-0.0537,-0.2056,0.0000,inf,,0.0000,2.6000,134732.0000,12.5216,55.6721,b'N',b'E',b'A',b'A',0.0000
1,3,5.1480,9.7236,-0.0718,-0.1483,-7.3213,20.8713,5.6214,,,0.0000,0.0000,0.0000,-0.5508,2.0506,17.9846,-7.1272,20.9244,5.4240,55.4698,55.4694,-0.0552,-0.2086,0.0000,inf,,0.0000,2.6000,134732.0000,12.5216,55.6721,b'N',b'E',b'A',b'A',0.0000
1,3,5.1680,9.6375,0.0861,0.1579,-4.8798,0.1801,-2.0081,,,0.0000,0.0000,0.0000,-0.6935,1.9961,17.9244,-4.9499,0.1557,-2.0113,55.7582,55.7578,-0.0526,-0.2038,0.0000,inf,,0.0000,3.2000,134732.0000,12.5216,55.6721,b'N',b'E',b'A',b'A',0.0000
1,3,5.1980,9.9724,0.0861,-0.1053,12.6986,0.4852,16.1807,,,0.0000,0.0000,0.0000,-0.3162,1.9825,18.4098,13.2586,0.5745,16.1874,56.0579,56.0575,-0.0500,-0.2070,0.0000,inf,,0.0000,3.2000,134732.0000,12.5216,55.6721,b'N',b'E',b'A',b'A',0.0000
1,3,5.2280,9.9581,0.0622,-0.1531,10.5013,5.3071,-0.4822,,,0.0000,0.0000,0.0000,-0.0597,2.0905,18.3978,10.4835,5.3066,-0.4880,56.3080,56.3075,-0.0484,-0.2108,0.0000,inf,,0.0000,3.2000,134732.0000,12.5216,55.6721,b'N',b'E',b'A',b'A',0.0000
1,3,5.2530,9.9820,0.1340,-0.0383,2.3835,-0.3082,-12.4453,,,0.0000,0.0000,0.0000,0.0078,2.0425,17.9622,1.9396,-0.3065,-12.4532,56.6573,56.6569,-0.0438,-0.2122,0.0000,inf,,0.0000,3.2000,134732.0000,12.5216,55.6721,b'N',b'E',b'A',b'A',0.0000
1,3,5.2880,9.8193,-0.1148,-0.1005,0.8576,-0.2472,5.0111,,,0.0000,0.0000,0.0000,0.0463,2.0061,18.1125,1.0331,-0.2512,5.0139,56.9535,56.9531,-0.0472,-0.2152,0.0000,inf,,0.0000,3.2000,134732.0000,12.5216,55.6721,b'N',b'E',b'A',b'A',0.0000
1,3,5.3180,9.6470,-0.0957,0.1101,16.2997,-1.4069,14.4106,,,0.0000,0.0000,0.0000,0.5359,1.9116,18.5448,16.7802,-1.5416,14.4048,57.2425,57.2421,-0.0501,-0.2119,0.0000,inf,,0.0000,3.2000,134732.0000,12.5216,55.6721,b'N',b'E',b'A',b'A',0.0000
1,3,5.3480,9.9006,0.0957,-0.0383,6.4729,18.4909,14.4717,,,0.0000,0.0000,0.0000,0.6410,2.2402,18.8343,7.0470,18.3278,14.6888,57.4423,57.4419,-0.0482,-0.2127,0.0000,inf,,0.0000,3.2000,134733.0000,12.5216,55.6721,b'N',b'E',b'A',b'A',0.0000
1,3,5.3680,9.8193,-0.1244,-0.1866,2.9938,-2.6886,-7.5624,,,0.0000,0.0000,0.0000,0.7630,2.1091,18.5242,2.7140,-2.5877,-7.6027,57.8460,57.8456,-0.0533,-0.2204,0.0000,inf,,0.0000,3.2000,134733.0000,12.5216,55.6721,b'N',b'E',b'A',b'A',0.0000
1,3,5.4090,9.7236,-0.0574,0.1866,-19.7116,11.7159,1.9593,,,0.0000,0.0000,0.0000,0.1170,2.4239,18.5889,-19.6277,11.7118,1.9850,58.1590,58.1586,-0.0551,-0.2144,0.0000,inf,,0.0000,3.2000,134733.0000,12.5216,55.6721,b'N',b'E',b'A',b'A',0.0000
1,3,5.4420,9.9533,0.1962,0.0718,17.6425,4.0253,-10.1869,,,0.0000,0.0000,0.0000,0.5416,2.4697,18.3240,17.2048,4.1215,-10.1578,58.4201,58.4197,-0.0500,-0.2125,0.0000,inf,,0.0000,3.2000,134733.0000,12.5216,55.6721,b'N',b'E',b'A',b'A',0.0000
1,3,5.4680,9.7571,-0.1388,0.1053,-6.1006,-12.0272,13.9834,,,0.0000,0.0000,0.0000,0.3020,1.9247,18.8973,-5.6328,-12.1007,13.9276,58.8202,58.8198,-0.0557,-0.2082,0.0000,inf,,0.0000,3.2000,134733.0000,12.5216,55.6721,b'N',b'E',b'A',b'A',0.0000
1,3,5.5090,9.7140,-0.0239,0.1818,10.9895,-11.2337,-1.3977,,,0.0000,0.0000,0.0000,0.6434,1.5124,18.8526,10.9493,-11.2173,-1.5243,59.1306,59.1302,-0.0564,-0.2023,0.0000,inf,,0.0000,3.2000,134733.0000,12.5216,55.6721,b'N',b'E',b'A',b'A',0.0000
1,3,5.5410,9.8097,-0.1053,-0.1388,2.8107,5.4292,11.7861,,,0.0000,0.0000,0.0000,0.7172,1.6421,19.1708,3.1505,5.2812,11.8580,59.3987,59.3984,-0.0593,-0.2061,0.0000,inf,,0.0000,3.2000,134733.0000,12.5216,55.6721,b'N',b'E',b'A',b'A',0.0000
1,3,5.5680,9.7619,0.1196,-0.0526,11.1727,13.6080,15.9976,,,0.0000,0.0000,0.0000,1.1268,2.1488,19.8107,11.7828,13.2908,16.2735,59.7858,59.7854,-0.0546,-0.2082,0.0000,inf,,0.0000,3.2000,134733.0000,12.5216,55.6721,b'N',b'E',b'A',b'A',0.0000
1,3,5.6080,9.6135,-0.0335,0.1388,-13.7911,15.4391,-13.7270,,,0.0000,0.0000,0.0000,0.8379,2.3919,19.5362,-14.3550,15.6382,-13.5115,59.9848,59.9844,-0.0553,-0.2054,0.0000,inf,,0.0000,3.2000,134733.0000,12.5216,55.6721,b'N',b'E',b'A',b'A',0.0000
1,3,5.6280,9.8959,0.0526,-0.1818,-6.4668,-3.9704,4.0345,,,0.0000,0.0000,0.0000,0.5552,2.2056,19.7016,-6.3129,-4.0093,3.9988,60.3816,60.3812,-0.0531,-0.2126,0.0000,inf,,0.0000,3.2000,134733.0000,12.5216,55.6721,b'N',b'E',b'A',b'A',0.0000
1,3,5.6690,9.8001,-0.0574,0.0526,0.6744,3.4760,-12.1401,,,0.0000,0.0000,0.0000,0.5700,2.2541,19.3495,0.1980,3.5966,-12.1143,60.6739,60.6735,-0.0549,-0.2111,0.0000,inf,,0.0000,3.2000,134733.0000,12.5216,55.6721,b'N',b'E',b'A',b'A',0.0000
1,3,5.6980,9.9389,-0.1005,0.1388,-14.3404,-6.9001,-12.3232,,,0.0000,0.0000,0.0000,0.1486,1.9902,18.9798,-14.7693,-6.8681,-12.3485,60.9724,60.9720,-0.0579,-0.2069,0.0000,inf,,0.0000,3.2000,134733.0000,12.5216,55.6721,b'N',b'E',b'A',b'A',0.0000
1,3,5.7280,9.9246,-0.1005,-0.0096,10.8064,4.3915,-8.1727,,,0.0000,0.0000,0.0000,0.5808,2.1236,18.6529,10.5050,4.4742,-8.1334,61.3633,61.3629,-0.0618,-0.2073,0.0000,inf,,0.0000,3.2000,134733.0000,12.5216,55.6721,b'N',b'E',b'A',b'A',0.0000
1,3,5.7680,9.6470,-0.1101,0.1771,-11.5328,20.2609,23.3219,,,0.0000,0.0000,0.0000,0.3450,2.4771,19.1427,-10.5186,20.1202,23.4654,61.5654,61.5651,-0.0641,-0.2036,0.0000,inf,,0.0000,3.2000,134734.0000,12.5216,55.6721,b'N',b'E',b'A',b'A',0.0000
1,3,5.7890,9.8959,-0.1579,0.1244,7.2053,18.0636,8.3680,,,0.0000,0.0000,0.0000,0.6317,3.1036,19.4690,7.6698,17.9703,8.5793,61.9523,61.9519,-0.0703,-0.1987,0.0000,inf,,0.0000,3.2000,134734.0000,12.5216,55.6721,b'N',b'E',b'A',b'A',0.0000
1,3,5.8280,9.8767,-0.1771,0.1244,-17.4533,-1.0407,8.0629,,,0.0000,0.0000,0.0000,0.2976,3.0067,19.6303,-17.0301,-1.0825,8.0685,62.1512,62.1508,-0.0739,-0.1962,0.0000,inf,,0.0000,3.2000,134734.0000,12.5216,55.6721,b'N',b'E',b'A',b'A',0.0000
1,3,5.8480,9.6327,0.1340,0.1675,6.2287,-3.6042,-2.1302,,,0.0000,0.0000,0.0000,0.3977,2.8560,19.5877,6.1212,-3.5893,-2.1578,62.3482,62.3479,-0.0711,-0.1928,0.0000,inf,,0.0000,3.2000,134734.0000,12.5216,55.6721,b'N',b'E',b'A',b'A',0.0000
1,3,5.8680,9.6422,-0.0383,-0.1101,7.3884,-0.9186,-4.8157,,,0.0000,0.0000,0.0000,0.6116,2.7849,19.4432,7.1537,-0.8671,-4.8310,62.6341,62.6338,-0.0723,-0.1960,0.0000,inf,,0.0000,3.2000,134734.0000,12.5216,55.6721,b'N',b'E',b'A',b'A',0.0000
1,3,5.8980,9.9533,-0.0335,-0.1483,0.7355,-0.0641,-1.6419,,,0.0000,0.0000,0.0000,0.6248,2.7444,19.3940,0.6568,-0.0462,-1.6444,62.9367,62.9363,-0.0733,-0.2006,0.0000,inf,,0.0000,3.2000,134734.0000,12.5216,55.6721,b'N',b'E',b'A',b'A',0.0000
1,3,5.9280,9.7236,-0.0622,0.1483,-12.7535,-4.0314,5.4994,,,0.0000,0.0000,0.0000,0.1197,2.5140,19.6139,-12.5124,-4.0429,5.4962,63.3214,63.3210,-0.0758,-0.1947,0.0000,inf,,0.0000,3.2000,134734.0000,12.5216,55.6721,b'N',b'E',b'A',b'A',0.0000
1,3,5.9680,9.7475,-0.1723,-0.1436,-4.3915,-10.0740,-5.3651,,,0.0000,0.0000,0.0000,0.0084,2.1844,19.4530,-4.5962,-10.0732,-5.3705,63.6120,63.6116,-0.0809,-0.1990,0.0000,inf,,0.0000,3.2000,134734.0000,12.5216,55.6721,b'N',b'E',b'A',b'A',0.0000
1,3,5.9980,9.9485,0.1914,0.0526,-17.3312,-14.8959,10.8705,,,0.0000,0.0000,0.0000,-0.5233,1.6967,19.7791,-17.0052,-14.7960,11.0109,63.9160,63.9157,-0.0750,-0.1974,0.0000,inf,,0.0000,3.2000,134734.0000,12.5216,55.6721,b'N',b'E',b'A',b'A',0.0000
1,3,6.0280,9.9581,-0.0239,0.1579,0.4303,-10.5013,-4.6326,,,0.0000,0.0000,0.0000,-0.4932,1.2330,19.5938,0.3325,-10.5407,-4.5431,64.3084,64.3080,-0.0760,-0.1911,0.0000,inf,,0.0000,3.2000,134734.0000,12.5216,55.6721,b'N',b'E',b'A',b'A',0.0000
1,3,6.0680,9.7571,-0.1771,-0.0048,-4.6357,20.5051,-9.3935,,,0.0000,0.0000,0.0000,-0.5534,1.6108,19.4059,-4.9054,20.4134,-9.5949,64.5048,64.5045,-0.0795,-0.1912,0.0000,inf,,0.0000,3.2000,134734.0000,12.5216,55.6721,b'N',b'E',b'A',b'A',0.0000
1,3,6.0880,9.7092,0.1627,-0.1388,-18.7350,0.3021,-8.8441,,,0.0000,0.0000,0.0000,-0.9471,1.6012,19.2202,-18.9823,0.1559,-8.8514,64.7052,64.7049,-0.0762,-0.1941,0.0000,inf,,0.0000,3.2000,134734.0000,12.5216,55.6721,b'N',b'E',b'A',b'A',0.0000
1,3,6.1090,9.8528,-0.1866,0.1148,-6.1616,3.0488,-8.5389,,,0.0000,0.0000,0.0000,-1.1420,1.6723,18.8872,-6.4126,2.8780,-8.6017,65.0913,65.0910,-0.0835,-0.1896,0.0000,inf,,0.0000,3.2000,134734.0000,12.5216,55.6721,b'N',b'E',b'A',b'A',0.0000
1,3,6.1480,9.9102,-0.1723,0.0048,-12.6925,4.2695,19.7818,,,0.0000,0.0000,0.0000,-1.4724,1.7638,19.4806,-12.0869,4.7764,19.6749,65.3908,65.3904,-0.0887,-0.1894,0.0000,inf,,0.0000,3.2000,134734.0000,12.5216,55.6721,b'N',b'E',b'A',b'A',0.0000
1,3,6.1780,9.6805,-0.0622,0.1531,11.9051,15.8053,23.4440,,,0.0000,0.0000,0.0000,-1.0855,2.1751,20.1839,12.7840,16.2466,23.1570,65.6838,65.6835,-0.0906,-0.1848,0.0000,inf,,0.0000,3.2000,34138.0000,-105.1125,39.8980,b'N',b'W',b'A',b'A',0.0000
1,3,6.2080,9.6135,-0.0096,0.0861,0.1251,-8.5481,-4.8768,,,0.0000,0.0000,0.0000,-1.0578,1.7862,19.9889,-0.0220,-8.6367,-4.7204,66.0705,66.0702,-0.0910,-0.1813,0.0000,inf,,0.0000,3.2000,34138.0000,-105.1125,39.8980,b'N',b'W',b'A',b'A',0.0000
1,3,6.2480,9.7092,-0.0096,-0.1005,-6.7109,-8.5481,20.5753,,,0.0000,0.0000,0.0000,-1.2328,1.5111,20.6061,-6.1634,-8.1034,20.7616,66.3554,66.3551,-0.0913,-0.1843,0.0000,inf,,0.0000,3.2000,34138.0000,-105.1125,39.8980,b'N',b'W',b'A',b'A',0.0000
1,3,6.2780,9.6709,-0.0718,-0.1914,10.5623,-9.2805,-12.6284,,,0.0000,0.0000,0.0000,-0.8788,1.2216,20.2147,10.2961,-9.4731,-12.4874,66.6528,66.6525,-0.0935,-0.1902,0.0000,inf,,0.0000,3.2000,34138.0000,-105.1125,39.8980,b'N',b'W',b'A',b'A',0.0000
1,3,6.3090,9.8528,0.0048,-0.1483,-8.8472,-8.9143,18.3169,,,0.0000,0.0000,0.0000,-1.1999,0.8737,20.9290,-8.5651,-8.5288,18.5017,67.0417,67.0413,-0.0933,-0.1960,0.0000,inf,,0.0000,3.2000,34138.0000,-105.1125,39.8980,b'N',b'W',b'A',b'A',0.0000
1,3,6.3480,9.8671,0.0383,0.1340,4.3977,-6.4729,-7.5624,,,0.0000,0.0000,0.0000,-1.0510,0.6504,20.7021,4.3132,-6.6105,-7.4428,67.3345,67.3342,-0.0921,-0.1921,0.0000,inf,,0.0000,3.2000,34138.0000,-105.1125,39.8980,b'N',b'W',b'A',b'A',0.0000
1,3,6.3780,9.6135,0.0622,0.1436,-11.3497,2.0722,-12.5673,,,0.0000,0.0000,0.0000,-1.3822,0.6832,20.3126,-11.5001,1.7684,-12.6146,67.6307,67.6304,-0.0902,-0.1876,0.0000,inf,,0.0000,3.2000,202725.0000,-114.0307,51.1504,b'N',b'W',b'A',b'A',0.0000
1,3,6.4090,9.8145,0.1866,-0.1531,-15.1339,-11.2947,4.8280,,,0.0000,0.0000,0.0000,-1.8510,0.3332,20.4670,-15.1037,-11.1329,5.1903,67.9458,67.9455,-0.0842,-0.1926,0.0000,inf,,0.0000,3.2000,202725.0000,-114.0307,51.1504,b'N',b'W',b'A',b'A',0.0000
1,3,6.4410,9.9916,-0.1292,-0.1723,16.7269,-5.2522,10.3822,,,0.0000,0.0000,0.0000,-1.2910,0.1867,20.7889,16.7612,-5.0169,10.4980,68.2579,68.2575,-0.0883,-0.1979,0.0000,inf,,0.0000,3.2000,202725.0000,-114.0307,51.1504,b'N',b'W',b'A',b'A',0.0000
1,3,6.4720,9.8624,0.0191,-0.0909,-2.6215,7.1382,0.2502,,,0.0000,0.0000,0.0000,-1.3470,0.4104,20.7967,-2.6209,7.1421,0.0824,68.5632,68.5629,-0.0877,-0.2007,0.0000,inf,,0.0000,3.2000,202725.0000,-114.0307,51.1504,b'N',b'W',b'A',b'A',0.0000
1,3,6.5030,9.9437,0.0239,0.1771,-16.1105,11.1666,10.2602,,,0.0000,0.0000,0.0000,-1.8123,0.7210,21.1147,-15.9859,11.4854,9.9027,68.8754,68.8751,-0.0869,-0.1952,0.0000,inf,,0.0000,3.2000,202725.0000,-114.0307,51.1504,b'N',b'W',b'A',b'A',0.0000
1,3,6.5340,9.9437,0.0144,0.0622,4.2145,7.8096,-15.5581,,,0.0000,0.0000,0.0000,-1.6496,0.9367,20.6324,3.9566,7.3584,-15.7786,69.1857,69.1854,-0.0865,-0.1932,0.0000,inf,,0.0000,3.2000,202725.0000,-114.0307,51.1504,b'N',b'W',b'A',b'A',0.0000
1,3,6.5650,9.8576,0.0526,0.0335,-11.1055,10.9224,11.2978,,,0.0000,0.0000,0.0000,-1.8731,1.1603,20.8923,-10.8841,11.2858,10.9370,69.4075,69.4072,-0.0853,-0.1925,0.0000,inf,,0.0000,3.2000,202725.0000,-114.0307,51.1504,b'N',b'W',b'A',b'A',0.0000
1,3,6.5880,9.6279,-0.0383,-0.1196,-11.7769,-10.6233,13.1289,,,0.0000,0.0000,0.0000,-2.0734,0.9327,21.1680,-11.5571,-10.1414,13.5064,69.6085,69.6082,-0.0861,-0.1950,0.0000,inf,,0.0000,3.2000,134730.3594,12.5214,55.6720,b'N',b'E',b'A',b'A',0.0000
1,3,6.6090,9.7858,0.1196,0.0000,0.9186,16.8429,21.2467,,,0.0000,0.0000,0.0000,-2.0109,1.5578,21.9966,1.4800,17.5781,20.6502,69.9904,69.9901,-0.0814,-0.1950,0.0000,inf,,0.0000,3.2000,134730.3594,12.5214,55.6720,b'N',b'E',b'A',b'A',0.0000
1,3,6.6480,9.6375,-0.1627,-0.0144,-11.2276,9.2744,8.3070,,,0.0000,0.0000,0.0000,-2.2814,1.8010,22.2458,-10.9782,9.5978,7.9352,70.2810,70.2807,-0.0863,-0.1954,0.0000,inf,,0.0000,3.2000,134730.3594,12.5214,55.6720,b'N',b'E',b'A',b'A',0.0000
1,3,6.6780,9.8480,0.0574,0.0861,-17.9416,10.5562,21.2467,,,0.0000,0.0000,0.0000,-2.7699,2.0653,22.8832,-17.1947,11.5706,20.7252,70.5765,70.5762,-0.0846,-0.1928,0.0000,inf,,0.0000,3.2000,134730.3594,12.5214,55.6720,b'N',b'E',b'A',b'A',0.0000
1,3,6.7080,9.8193,0.1436,0.0479,-15.0729,22.1530,-1.3977,,,0.0000,0.0000,0.0000,-3.1744,2.6697,22.8413,-15.1951,22.0417,-2.6252,70.8746,70.8743,-0.0802,-0.1914,0.0000,inf,,0.0000,3.2000,134730.3594,12.5214,55.6720,b'N',b'E',b'A',b'A',0.0000
1,3,6.7380,9.6422,-0.1962,-0.1148,0.9796,-17.0932,19.1104,,,0.0000,0.0000,0.0000,-3.0492,1.9599,23.6057,1.6638,-16.0524,20.0043,71.2576,71.2572,-0.0880,-0.1959,0.0000,inf,,0.0000,3.2000,134730.3594,12.5214,55.6720,b'N',b'E',b'A',b'A',0.0000
1,3,6.7780,9.8145,-0.1866,0.0239,17.9477,-11.8441,5.9266,,,0.0000,0.0000,0.0000,-2.4388,1.5697,23.7835,18.1237,-11.5811,6.4276,71.5543,71.5540,-0.0937,-0.1952,0.0000,inf,,0.0000,3.2000,134731.3594,12.5216,55.6721,b'N',b'E',b'A',b'A',0.0000
1,3,6.8080,9.7523,0.0000,-0.0813,-5.8564,-0.2472,-1.3977,,,0.0000,0.0000,0.0000,-2.5909,1.5394,23.7346,-5.8936,-0.3101,-1.3856,71.8938,71.8934,-0.0937,-0.1981,0.0000,inf,,0.0000,3.2000,134731.3594,12.5216,55.6721,b'N',b'E',b'A',b'A',0.0000
1,3,6.8430,9.8911,-0.1101,-0.1388,17.3373,-16.1776,9.7108,,,0.0000,0.0000,0.0000,-1.9317,0.9698,24.0744,17.5108,-15.8411,10.2521,72.2400,72.2397,-0.0975,-0.2029,0.0000,inf,,0.0000,3.2000,134731.3594,12.5216,55.6721,b'N',b'E',b'A',b'A',0.0000
1,3,6.8780,9.6709,-0.0622,-0.1627,6.2287,-2.3835,-1.4588,,,0.0000,0.0000,0.0000,-1.7025,0.8996,24.0307,6.2069,-2.4257,-1.3875,72.5285,72.5281,-0.0994,-0.2078,0.0000,inf,,0.0000,3.2000,134731.3594,12.5216,55.6721,b'N',b'E',b'A',b'A',0.0000
1,3,6.9080,9.9294,-0.1627,-0.1627,-10.3731,11.5938,19.1104,,,0.0000,0.0000,0.0000,-1.9547,1.2412,24.6040,-9.9678,12.2389,18.7082,72.8264,72.8260,-0.1043,-0.2126,0.0000,inf,,0.0000,3.2000,134731.3594,12.5216,55.6721,b'N',b'E',b'A',b'A',0.0000
1,3,6.9380,9.7236,-0.1866,-0.0909,7.2053,10.4341,-4.8768,,,0.0000,0.0000,0.0000,-1.6818,1.5339,24.4577,7.0666,10.2865,-5.1828,73.1160,73.1156,-0.1098,-0.2154,0.0000,inf,,0.0000,3.2000,134731.3594,12.5216,55.6721,b'N',b'E',b'A',b'A',0.0000
1,3,6.9680,9.8193,-0.0574,-0.0239,0.0641,-0.5524,15.5093,,,0.0000,0.0000,0.0000,-1.6402,1.4952,24.7679,0.4691,-0.1082,15.5240,73.3185,73.3181,-0.1110,-0.2158,0.0000,inf,,0.0000,3.2000,134731.3594,12.5216,55.6721,b'N',b'E',b'A',b'A',0.0000
1,3,6.9880,9.6040,0.0574,-0.0239,-11.5328,15.7443,20.2701,,,0.0000,0.0000,0.0000,-2.0663,2.0853,25.5787,-10.8159,16.4649,19.7023,73.6995,73.6991,-0.1087,-0.2168,0.0000,inf,,0.0000,2.6000,134731.3594,12.5216,55.6721,b'N',b'E',b'A',b'A',0.0000
1,3,7.0280,9.9389,-0.0431,0.1723,-7.0161,-6.5949,11.2978,,,0.0000,0.0000,0.0000,-2.1575,1.8945,25.8046,-6.6345,-6.1649,11.5444,73.8989,73.8985,-0.1096,-0.2133,0.0000,inf,,0.0000,2.6000,134731.3594,12.5216,55.6721,b'N',b'E',b'A',b'A',0.0000
1,3,7.0480,9.7523,0.0718,0.0431,-7.6875,2.5605,-7.6844,,,0.0000,0.0000,0.0000,-2.3488,1.9268,25.5741,-7.9493,2.2434,-7.7873,74.1921,74.1917,-0.1074,-0.2120,0.0000,inf,,0.0000,2.6000,134731.3594,12.5216,55.6721,b'N',b'E',b'A',b'A',0.0000
1,3,7.0780,9.6566,0.1292,-0.1292,9.5247,-10.0740,13.7392,,,0.0000,0.0000,0.0000,-2.0371,1.6074,25.9863,9.9200,-9.5792,14.0942,74.4849,74.4846,-0.1035,-0.2160,0.0000,inf,,0.0000,2.6000,134731.3594,12.5216,55.6721,b'N',b'E',b'A',b'A',0.0000
1,3,7.1090,9.8767,0.1005,0.0909,8.3040,7.1992,5.6825,,,0.0000,0.0000,0.0000,-1.6825,1.8469,26.2136,8.4803,7.3629,5.4715,74.8774,74.8771,-0.0995,-0.2124,0.0000,inf,,0.0000,2.6000,134731.3594,12.5216,55.6721,b'N',b'E',b'A',b'A',0.0000
1,3,7.1480,9.9437,0.1244,-0.0191,17.0932,10.3731,0.6165,,,0.0000,0.0000,0.0000,-0.9932,2.2188,26.2382,17.1101,10.3822,0.4369,75.2728,75.2725,-0.0946,-0.2131,0.0000,inf,,0.0000,2.6000,134731.3594,12.5216,55.6721,b'N',b'E',b'A',b'A',0.0000
1,3,7.1880,9.6040,-0.0813,-0.0766,-2.3774,16.9039,-8.1727,,,0.0000,0.0000,0.0000,-1.0568,2.8462,25.9113,-2.7991,16.7503,-8.4936,75.6564,75.6560,-0.0978,-0.2162,0.0000,inf,,0.0000,2.6000,134732.0000,12.5216,55.6721,b'N',b'E',b'A',b'A',0.0000
1,3,7.2280,9.7044,0.1723,-0.1675,-3.5981,-5.3742,9.8939,,,0.0000,0.0000,0.0000,-1.1970,2.5984,26.3071,-3.1441,-5.1664,10.0144,76.0457,76.0453,-0.0909,-0.2229,0.0000,inf,,0.0000,2.6000,134732.0000,12.5216,55.6721,b'N',b'E',b'A',b'A',0.0000
1,3,7.2680,9.7906,-0.0622,0.1340,9.6468,5.9785,-0.5432,,,0.0000,0.0000,0.0000,-0.8728,2.7124,26.2902,9.6167,5.9695,-0.6349,76.3484,76.3480,-0.0928,-0.2187,0.0000,inf,,0.0000,2.6000,134732.0000,12.5216,55.6721,b'N',b'E',b'A',b'A',0.0000
1,3,7.2990,9.9628,-0.0622,0.1914,14.2855,2.4384,7.2084,,,0.0000,0.0000,0.0000,-0.4422,2.7054,26.4993,14.6252,2.4939,7.1974,76.6379,76.6375,-0.0946,-0.2132,0.0000,inf,,0.0000,2.6000,134732.0000,12.5216,55.6721,b'N',b'E',b'A',b'A',0.0000
1,3,7.3280,9.9054,-0.0766,0.0239,-9.2134,-14.4076,16.3638,,,0.0000,0.0000,0.0000,-0.6953,2.2249,26.9902,-8.5709,-14.2079,16.5499,76.9342,76.9339,-0.0969,-0.2125,0.0000,inf,,0.0000,2.6000,134732.0000,12.5216,55.6721,b'N',b'E',b'A',b'A',0.0000
1,3,7.3580,9.7427,-0.0287,-0.0048,-0.4242,17.3312,-3.7171,,,0.0000,0.0000,0.0000,-0.6926,2.7755,26.8601,-0.6145,17.2850,-3.9309,77.2737,77.2733,-0.0979,-0.2126,0.0000,inf,,0.0000,2.6000,134732.0000,12.5216,55.6721,b'N',b'E',b'A',b'A',0.0000
1,3,7.3930,9.8576,0.0287,0.1436,-3.1098,-9.7688,8.5512,,,0.0000,0.0000,0.0000,-0.7766,2.4065,27.1252,-2.7449,-9.6520,8.6904,77.5826,77.5823,-0.0970,-0.2081,0.0000,inf,,0.0000,2.6000,134732.0000,12.5216,55.6721,b'N',b'E',b'A',b'A',0.0000
1,3,7.4240,9.8480,-0.1818,0.0861,11.9051,-10.0740,0.8606,,,0.0000,0.0000,0.0000,-0.3665,2.0324,27.1527,11.9379,-10.0683,0.9256,77.8952,77.8948,-0.1028,-0.2054,0.0000,inf,,0.0000,2.6000,134732.0000,12.5216,55.6721,b'N',b'E',b'A',b'A',0.0000
1,3,7.4560,9.8289,-0.1005,-0.1005,-12.4483,1.8280,1.7761,,,0.0000,0.0000,0.0000,-0.7257,2.0590,27.2078,-12.3853,1.8504,1.7540,78.1998,78.1995,-0.1059,-0.2085,0.0000,inf,,0.0000,2.6000,134732.0000,12.5216,55.6721,b'N',b'E',b'A',b'A',0.0000
1,3,7.4870,9.8097,0.0048,0.1627,-8.4199,20.9934,7.3304,,,0.0000,0.0000,0.0000,-0.9262,2.5338,27.3984,-8.1106,21.1091,6.9970,78.4601,78.4597,-0.1058,-0.2042,0.0000,inf,,0.0000,2.6000,134732.0000,12.5216,55.6721,b'N',b'E',b'A',b'A',0.0000
1,3,7.5130,9.6279,-0.0144,0.1053,2.3224,11.2276,-7.5624,,,0.0000,0.0000,0.0000,-0.8332,2.8226,27.1564,1.9416,11.1164,-7.7342,78.7641,78.7637,-0.1063,-0.2009,0.0000,inf,,0.0000,2.6000,134732.0000,12.5216,55.6721,b'N',b'E',b'A',b'A',0.0000
1,3,7.5450,9.6901,-0.1531,-0.1914,6.6560,5.9174,-9.3935,,,0.0000,0.0000,0.0000,-0.5832,2.9802,26.8464,6.1638,5.8215,-9.4660,79.0839,79.0835,-0.1113,-0.2072,0.0000,inf,,0.0000,2.6000,134732.0000,12.5216,55.6721,b'N',b'E',b'A',b'A',0.0000
1,3,7.5780,9.9246,0.0096,-0.0813,18.4970,-17.0932,18.8052,,,0.0000,0.0000,0.0000,-0.0288,2.4274,27.4106,19.2945,-17.0837,18.8307,79.3859,79.3856,-0.1110,-0.2097,0.0000,inf,,0.0000,2.6000,134732.0000,12.5216,55.6721,b'N',b'E',b'A',b'A',0.0000
1,3,7.6080,9.7427,0.0383,-0.0957,13.3700,-17.2763,-8.4169,,,0.0000,0.0000,0.0000,0.3604,1.8822,27.1580,13.0898,-17.2230,-8.5300,79.6753,79.6749,-0.1099,-0.2125,0.0000,inf,,0.0000,3.2000,134732.0000,12.5216,55.6721,b'N',b'E',b'A',b'A',0.0000
1,3,7.6380,9.7236,0.1914,-0.0718,-10.9224,-12.2713,15.6924,,,0.0000,0.0000,0.0000,-0.0976,1.3720,27.7857,-10.5461,-12.2446,15.7178,80.0628,80.0625,-0.1022,-0.2154,0.0000,inf,,0.0000,3.2000,134732.0000,12.5216,55.6721,b'N',b'E',b'A',b'A',0.0000
1,3,7.6780,9.9581,-0.0813,0.1053,-6.1616,2.4994,15.1431,,,0.0000,0.0000,0.0000,-0.2674,1.4059,28.2400,-5.7902,2.5701,15.1358,80.3599,80.3595,-0.1047,-0.2122,0.0000,inf,,0.0000,3.2000,134732.0000,12.5216,55.6721,b'N',b'E',b'A',b'A',0.0000
1,3,7.7080,9.8528,0.1101,-0.1388,4.1535,5.7954,-7.8065,,,0.0000,0.0000,0.0000,-0.1120,1.6211,27.9278,3.9322,5.7801,-7.8210,80.7567,80.7564,-0.1002,-0.2178,0.0000,inf,,0.0000,3.2000,134732.0000,12.5216,55.6721,b'N',b'E',b'A',b'A',0.0000
